[
  {
    "endpoint": "https://pfas-db-dev.mdc.renci.unc.edu/podm/api/distance_from_npl/miles=5&pi=HUD&pfasb=True/get-distance/?format=json"
  },
  {
    "pfas_sample_id": "KITB-003-WQ-01",
    "miles": 5,
    "study": "AHHS",
    "pi": "HUD",
    "units": "ng/g",
    "medium": "dust",
    "pfas_latitude": 42.38867691,
    "pfas_longitude": -71.54648036,
    "ogc_fid": 691,
    "npl_site_name": "Fort Devens-Sudbury Training Annex",
    "npl_site_score": 35.57,
    "npd_latitude": 42.406944,
    "npl_longitude": -71.475278,
    "pfas": true
  },
  {
    "pfas_sample_id": "KITB-022-WQ-01",
    "miles": 5,
    "study": "AHHS",
    "pi": "HUD",
    "units": "ng/g",
    "medium": "dust",
    "pfas_latitude": 41.58813874,
    "pfas_longitude": -71.45892878,
    "ogc_fid": 1286,
    "npl_site_name": "Davisville Naval Construction Battalion Center",
    "npl_site_score": 34.52,
    "npd_latitude": 41.6095,
    "npl_longitude": -71.47422,
    "pfas": true
  },
  {
    "pfas_sample_id": "KITB-045-WQ-01",
    "miles": 5,
    "study": "AHHS",
    "pi": "HUD",
    "units": "ng/g",
    "medium": "dust",
    "pfas_latitude": 32.16995843,
    "pfas_longitude": -110.9465585,
    "ogc_fid": 447,
    "npl_site_name": "Tucson International Airport Area",
    "npl_site_score": 57.8,
    "npd_latitude": 32.105561,
    "npl_longitude": -110.9333,
    "pfas": true
  },
  {
    "pfas_sample_id": "KITB-054-WQ-01",
    "miles": 5,
    "study": "AHHS",
    "pi": "HUD",
    "units": "ng/g",
    "medium": "dust",
    "pfas_latitude": 39.84007352,
    "pfas_longitude": -84.21114994,
    "ogc_fid": 1161,
    "npl_site_name": "Powell Road Landfill",
    "npl_site_score": 31.62,
    "npd_latitude": 39.833331,
    "npl_longitude": -84.16,
    "pfas": true
  },
  {
    "pfas_sample_id": "KITB-054-WQ-01",
    "miles": 5,
    "study": "AHHS",
    "pi": "HUD",
    "units": "ng/g",
    "medium": "dust",
    "pfas_latitude": 39.84007352,
    "pfas_longitude": -84.21114994,
    "ogc_fid": 1176,
    "npl_site_name": "North Sanitary Landfill",
    "npl_site_score": 50.0,
    "npd_latitude": 39.78611,
    "npl_longitude": -84.1525,
    "pfas": true
  },
  {
    "pfas_sample_id": "KITB-218-01",
    "miles": 5,
    "study": "AHHS",
    "pi": "HUD",
    "units": "ng/g",
    "medium": "dust",
    "pfas_latitude": 42.54998527,
    "pfas_longitude": -71.25205587,
    "ogc_fid": 202,
    "npl_site_name": "Olin Chemical",
    "npl_site_score": 50.0,
    "npd_latitude": 42.528056,
    "npl_longitude": -71.153889,
    "pfas": true
  },
  {
    "pfas_sample_id": "KITB-218-01",
    "miles": 5,
    "study": "AHHS",
    "pi": "HUD",
    "units": "ng/g",
    "medium": "dust",
    "pfas_latitude": 42.54998527,
    "pfas_longitude": -71.25205587,
    "ogc_fid": 683,
    "npl_site_name": "Iron Horse Park",
    "npl_site_score": 42.93,
    "npd_latitude": 42.583331,
    "npl_longitude": -71.265269,
    "pfas": true
  },
  {
    "pfas_sample_id": "KITB-218-01",
    "miles": 5,
    "study": "AHHS",
    "pi": "HUD",
    "units": "ng/g",
    "medium": "dust",
    "pfas_latitude": 42.54998527,
    "pfas_longitude": -71.25205587,
    "ogc_fid": 700,
    "npl_site_name": "Sutton Brook Disposal Area",
    "npl_site_score": 57.12,
    "npd_latitude": 42.598222,
    "npl_longitude": -71.183194,
    "pfas": true
  },
  {
    "pfas_sample_id": "KITB-222-01",
    "miles": 5,
    "study": "AHHS",
    "pi": "HUD",
    "units": "ng/g",
    "medium": "dust",
    "pfas_latitude": 39.79087637,
    "pfas_longitude": -86.21472215,
    "ogc_fid": 157,
    "npl_site_name": "Reilly Tar & Chemical Corp. (Indianapolis Plant)",
    "npl_site_score": 34.03,
    "npd_latitude": 39.740281,
    "npl_longitude": -86.218331,
    "pfas": true
  },
  {
    "pfas_sample_id": "KITB-136-01",
    "miles": 5,
    "study": "AHHS",
    "pi": "HUD",
    "units": "ng/g",
    "medium": "dust",
    "pfas_latitude": 21.4346938,
    "pfas_longitude": -157.9469544,
    "ogc_fid": 549,
    "npl_site_name": "Pearl Harbor Naval Complex",
    "npl_site_score": 70.82,
    "npd_latitude": 21.388889,
    "npl_longitude": -157.983333,
    "pfas": true
  },
  {
    "pfas_sample_id": "KITB-426-01",
    "miles": 5,
    "study": "AHHS",
    "pi": "HUD",
    "units": "ng/g",
    "medium": "dust",
    "pfas_latitude": 39.84007352,
    "pfas_longitude": -84.21114994,
    "ogc_fid": 1161,
    "npl_site_name": "Powell Road Landfill",
    "npl_site_score": 31.62,
    "npd_latitude": 39.833331,
    "npl_longitude": -84.16,
    "pfas": true
  },
  {
    "pfas_sample_id": "KITB-007-WQ-05",
    "miles": 5,
    "study": "AHHS",
    "pi": "HUD",
    "units": "ng/L",
    "medium": "water",
    "pfas_latitude": 41.5221434,
    "pfas_longitude": -87.42090616,
    "ogc_fid": 148,
    "npl_site_name": "Lake Sandy Jo (M&M Landfill)",
    "npl_site_score": 38.21,
    "npd_latitude": 41.570839,
    "npl_longitude": -87.382231,
    "pfas": true
  },
  {
    "pfas_sample_id": "KITB-345-01",
    "miles": 5,
    "study": "AHHS",
    "pi": "HUD",
    "units": "ng/g",
    "medium": "dust",
    "pfas_latitude": 39.23538925,
    "pfas_longitude": -84.46220077,
    "ogc_fid": 1154,
    "npl_site_name": "Pristine, Inc.",
    "npl_site_score": 35.25,
    "npd_latitude": 39.236111,
    "npl_longitude": -84.437231,
    "pfas": true
  },
  {
    "pfas_sample_id": "KITB-433-01",
    "miles": 5,
    "study": "AHHS",
    "pi": "HUD",
    "units": "ng/g",
    "medium": "dust",
    "pfas_latitude": 37.36982579,
    "pfas_longitude": -122.0734023,
    "ogc_fid": 303,
    "npl_site_name": "Fairchild Semiconductor Corp. (Mountain View Plant)",
    "npl_site_score": 31.94,
    "npd_latitude": 37.4012,
    "npl_longitude": -122.0542,
    "pfas": true
  },
  {
    "pfas_sample_id": "KITB-433-01",
    "miles": 5,
    "study": "AHHS",
    "pi": "HUD",
    "units": "ng/g",
    "medium": "dust",
    "pfas_latitude": 37.36982579,
    "pfas_longitude": -122.0734023,
    "ogc_fid": 305,
    "npl_site_name": "Intel Corp. (Mountain View Plant)",
    "npl_site_score": 29.76,
    "npd_latitude": 37.3962,
    "npl_longitude": -122.0566,
    "pfas": true
  },
  {
    "pfas_sample_id": "KITB-433-01",
    "miles": 5,
    "study": "AHHS",
    "pi": "HUD",
    "units": "ng/g",
    "medium": "dust",
    "pfas_latitude": 37.36982579,
    "pfas_longitude": -122.0734023,
    "ogc_fid": 306,
    "npl_site_name": "Raytheon Corp.",
    "npl_site_score": 29.76,
    "npd_latitude": 37.3975,
    "npl_longitude": -122.0533,
    "pfas": true
  },
  {
    "pfas_sample_id": "KITB-433-01",
    "miles": 5,
    "study": "AHHS",
    "pi": "HUD",
    "units": "ng/g",
    "medium": "dust",
    "pfas_latitude": 37.36982579,
    "pfas_longitude": -122.0734023,
    "ogc_fid": 307,
    "npl_site_name": "Moffett Naval Air Station",
    "npl_site_score": 29.49,
    "npd_latitude": 37.411389,
    "npl_longitude": -122.0522,
    "pfas": true
  },
  {
    "pfas_sample_id": "KITB-443-01",
    "miles": 5,
    "study": "AHHS",
    "pi": "HUD",
    "units": "ng/g",
    "medium": "dust",
    "pfas_latitude": 36.79993981,
    "pfas_longitude": -76.27523412,
    "ogc_fid": 1370,
    "npl_site_name": "Norfolk Naval Shipyard",
    "npl_site_score": 50.0,
    "npd_latitude": 36.821944,
    "npl_longitude": -76.294722,
    "pfas": true
  },
  {
    "pfas_sample_id": "KITB-443-01",
    "miles": 5,
    "study": "AHHS",
    "pi": "HUD",
    "units": "ng/g",
    "medium": "dust",
    "pfas_latitude": 36.79993981,
    "pfas_longitude": -76.27523412,
    "ogc_fid": 1375,
    "npl_site_name": "St. Juliens Creek Annex (U.S. Navy)",
    "npl_site_score": 50.0,
    "npd_latitude": 36.794167,
    "npl_longitude": -76.312222,
    "pfas": true
  },
  {
    "pfas_sample_id": "KITB-460-01",
    "miles": 5,
    "study": "AHHS",
    "pi": "HUD",
    "units": "ng/g",
    "medium": "dust",
    "pfas_latitude": 42.38867691,
    "pfas_longitude": -71.54648036,
    "ogc_fid": 691,
    "npl_site_name": "Fort Devens-Sudbury Training Annex",
    "npl_site_score": 35.57,
    "npd_latitude": 42.406944,
    "npl_longitude": -71.475278,
    "pfas": true
  },
  {
    "pfas_sample_id": "KITB-426-01",
    "miles": 5,
    "study": "AHHS",
    "pi": "HUD",
    "units": "ng/g",
    "medium": "dust",
    "pfas_latitude": 39.84007352,
    "pfas_longitude": -84.21114994,
    "ogc_fid": 1176,
    "npl_site_name": "North Sanitary Landfill",
    "npl_site_score": 50.0,
    "npd_latitude": 39.78611,
    "npl_longitude": -84.1525,
    "pfas": true
  },
  {
    "pfas_sample_id": "KITB-472-01",
    "miles": 5,
    "study": "AHHS",
    "pi": "HUD",
    "units": "ng/g",
    "medium": "dust",
    "pfas_latitude": 39.66466884,
    "pfas_longitude": -84.24060555,
    "ogc_fid": 1167,
    "npl_site_name": "Sanitary Landfill Co. (Industrial Waste Disposal Co., Inc.)",
    "npl_site_score": 35.57,
    "npd_latitude": 39.716581,
    "npl_longitude": -84.201531,
    "pfas": true
  },
  {
    "pfas_sample_id": "KITB-472-01",
    "miles": 5,
    "study": "AHHS",
    "pi": "HUD",
    "units": "ng/g",
    "medium": "dust",
    "pfas_latitude": 39.66466884,
    "pfas_longitude": -84.24060555,
    "ogc_fid": 1182,
    "npl_site_name": "South Dayton Dump & Landfill",
    "npl_site_score": 48.63,
    "npd_latitude": 39.729444,
    "npl_longitude": -84.219444,
    "pfas": true
  },
  {
    "pfas_sample_id": "KITB-492-01",
    "miles": 5,
    "study": "AHHS",
    "pi": "HUD",
    "units": "ng/g",
    "medium": "dust",
    "pfas_latitude": 43.10196407,
    "pfas_longitude": -78.9527894,
    "ogc_fid": 1551,
    "npl_site_name": "Hooker (S Area)",
    "npl_site_score": 51.62,
    "npd_latitude": 43.0757,
    "npl_longitude": -79.0054,
    "pfas": true
  },
  {
    "pfas_sample_id": "KITB-743-01",
    "miles": 5,
    "study": "AHHS",
    "pi": "HUD",
    "units": "ng/g",
    "medium": "dust",
    "pfas_latitude": 43.11028763,
    "pfas_longitude": -70.73196183,
    "ogc_fid": 242,
    "npl_site_name": "Portsmouth Naval Shipyard",
    "npl_site_score": 50.0,
    "npd_latitude": 43.084167,
    "npl_longitude": -70.741666,
    "pfas": true
  },
  {
    "pfas_sample_id": "KITB-545-01",
    "miles": 5,
    "study": "AHHS",
    "pi": "HUD",
    "units": "ng/g",
    "medium": "dust",
    "pfas_latitude": 40.72314732,
    "pfas_longitude": -73.8436963,
    "ogc_fid": 1139,
    "npl_site_name": "Meeker Avenue Plume",
    "npl_site_score": 50.0,
    "npd_latitude": 40.725409,
    "npl_longitude": -73.935904,
    "pfas": true
  },
  {
    "pfas_sample_id": "KITB-607-01",
    "miles": 5,
    "study": "AHHS",
    "pi": "HUD",
    "units": "ng/g",
    "medium": "dust",
    "pfas_latitude": 42.72210209,
    "pfas_longitude": -71.49548396,
    "ogc_fid": 669,
    "npl_site_name": "Charles-George Reclamation Trust Landfill",
    "npl_site_score": 47.2,
    "npd_latitude": 42.66945,
    "npl_longitude": -71.443339,
    "pfas": true
  },
  {
    "pfas_sample_id": "KITB-607-01",
    "miles": 5,
    "study": "AHHS",
    "pi": "HUD",
    "units": "ng/g",
    "medium": "dust",
    "pfas_latitude": 42.72210209,
    "pfas_longitude": -71.49548396,
    "ogc_fid": 930,
    "npl_site_name": "Sylvester",
    "npl_site_score": null,
    "npd_latitude": 42.7197,
    "npl_longitude": -71.523111,
    "pfas": true
  },
  {
    "pfas_sample_id": "KITB-661-W-01",
    "miles": 5,
    "study": "AHHS",
    "pi": "HUD",
    "units": "ng/g",
    "medium": "dust",
    "pfas_latitude": 43.53565292,
    "pfas_longitude": -70.45771213,
    "ogc_fid": 237,
    "npl_site_name": "Saco Municipal Landfill",
    "npl_site_score": 29.49,
    "npd_latitude": 43.5302,
    "npl_longitude": -70.4815,
    "pfas": true
  },
  {
    "pfas_sample_id": "KITB-661-W-01",
    "miles": 5,
    "study": "AHHS",
    "pi": "HUD",
    "units": "ng/g",
    "medium": "dust",
    "pfas_latitude": 43.53565292,
    "pfas_longitude": -70.45771213,
    "ogc_fid": 238,
    "npl_site_name": "Saco Tannery Waste Pits",
    "npl_site_score": 43.19,
    "npd_latitude": 43.56055,
    "npl_longitude": -70.426389,
    "pfas": true
  },
  {
    "pfas_sample_id": "KITB-662-W-01",
    "miles": 5,
    "study": "AHHS",
    "pi": "HUD",
    "units": "ng/g",
    "medium": "dust",
    "pfas_latitude": 21.4346938,
    "pfas_longitude": -157.9469544,
    "ogc_fid": 549,
    "npl_site_name": "Pearl Harbor Naval Complex",
    "npl_site_score": 70.82,
    "npd_latitude": 21.388889,
    "npl_longitude": -157.983333,
    "pfas": true
  },
  {
    "pfas_sample_id": "KITB-663-WQ-01",
    "miles": 5,
    "study": "AHHS",
    "pi": "HUD",
    "units": "ng/g",
    "medium": "dust",
    "pfas_latitude": 34.08987479,
    "pfas_longitude": -118.2946306,
    "ogc_fid": 484,
    "npl_site_name": "San Fernando Valley (Area 4)",
    "npl_site_score": 35.57,
    "npd_latitude": 34.112081,
    "npl_longitude": -118.2539,
    "pfas": true
  },
  {
    "pfas_sample_id": "KITB-669-W-01",
    "miles": 5,
    "study": "AHHS",
    "pi": "HUD",
    "units": "ng/g",
    "medium": "dust",
    "pfas_latitude": 40.81035542,
    "pfas_longitude": -73.04187643,
    "ogc_fid": 1593,
    "npl_site_name": "Goldisc Recordings, Inc.",
    "npl_site_score": 33.39,
    "npd_latitude": 40.7745,
    "npl_longitude": -73.0647,
    "pfas": true
  },
  {
    "pfas_sample_id": "KITB-743-01",
    "miles": 5,
    "study": "AHHS",
    "pi": "HUD",
    "units": "ng/g",
    "medium": "dust",
    "pfas_latitude": 43.11028763,
    "pfas_longitude": -70.73196183,
    "ogc_fid": 940,
    "npl_site_name": "Pease Air Force Base",
    "npl_site_score": 39.42,
    "npd_latitude": 43.080169,
    "npl_longitude": -70.82125,
    "pfas": true
  },
  {
    "pfas_sample_id": "KITB-745-01",
    "miles": 5,
    "study": "AHHS",
    "pi": "HUD",
    "units": "ng/g",
    "medium": "dust",
    "pfas_latitude": 37.36982579,
    "pfas_longitude": -122.0734023,
    "ogc_fid": 303,
    "npl_site_name": "Fairchild Semiconductor Corp. (Mountain View Plant)",
    "npl_site_score": 31.94,
    "npd_latitude": 37.4012,
    "npl_longitude": -122.0542,
    "pfas": true
  },
  {
    "pfas_sample_id": "KITB-745-01",
    "miles": 5,
    "study": "AHHS",
    "pi": "HUD",
    "units": "ng/g",
    "medium": "dust",
    "pfas_latitude": 37.36982579,
    "pfas_longitude": -122.0734023,
    "ogc_fid": 305,
    "npl_site_name": "Intel Corp. (Mountain View Plant)",
    "npl_site_score": 29.76,
    "npd_latitude": 37.3962,
    "npl_longitude": -122.0566,
    "pfas": true
  },
  {
    "pfas_sample_id": "KITB-745-01",
    "miles": 5,
    "study": "AHHS",
    "pi": "HUD",
    "units": "ng/g",
    "medium": "dust",
    "pfas_latitude": 37.36982579,
    "pfas_longitude": -122.0734023,
    "ogc_fid": 306,
    "npl_site_name": "Raytheon Corp.",
    "npl_site_score": 29.76,
    "npd_latitude": 37.3975,
    "npl_longitude": -122.0533,
    "pfas": true
  },
  {
    "pfas_sample_id": "KITB-745-01",
    "miles": 5,
    "study": "AHHS",
    "pi": "HUD",
    "units": "ng/g",
    "medium": "dust",
    "pfas_latitude": 37.36982579,
    "pfas_longitude": -122.0734023,
    "ogc_fid": 307,
    "npl_site_name": "Moffett Naval Air Station",
    "npl_site_score": 29.49,
    "npd_latitude": 37.411389,
    "npl_longitude": -122.0522,
    "pfas": true
  },
  {
    "pfas_sample_id": "KITB-767-01",
    "miles": 5,
    "study": "AHHS",
    "pi": "HUD",
    "units": "ng/g",
    "medium": "dust",
    "pfas_latitude": 39.23538925,
    "pfas_longitude": -84.46220077,
    "ogc_fid": 1154,
    "npl_site_name": "Pristine, Inc.",
    "npl_site_score": 35.25,
    "npd_latitude": 39.236111,
    "npl_longitude": -84.437231,
    "pfas": true
  },
  {
    "pfas_sample_id": "KITB-674-01",
    "miles": 5,
    "study": "AHHS",
    "pi": "HUD",
    "units": "ng/g",
    "medium": "dust",
    "pfas_latitude": 43.18934389,
    "pfas_longitude": -70.88430562,
    "ogc_fid": 926,
    "npl_site_name": "Dover Municipal Landfill",
    "npl_site_score": 36.98,
    "npd_latitude": 43.2125,
    "npl_longitude": -70.953,
    "pfas": true
  },
  {
    "pfas_sample_id": "KITB-674-01",
    "miles": 5,
    "study": "AHHS",
    "pi": "HUD",
    "units": "ng/g",
    "medium": "dust",
    "pfas_latitude": 43.18934389,
    "pfas_longitude": -70.88430562,
    "ogc_fid": 929,
    "npl_site_name": "Somersworth Sanitary Landfill",
    "npl_site_score": 65.56,
    "npd_latitude": 43.2489,
    "npl_longitude": -70.8845,
    "pfas": true
  },
  {
    "pfas_sample_id": "KITB-699-01",
    "miles": 5,
    "study": "AHHS",
    "pi": "HUD",
    "units": "ng/g",
    "medium": "dust",
    "pfas_latitude": 43.47697474,
    "pfas_longitude": -70.4742515,
    "ogc_fid": 237,
    "npl_site_name": "Saco Municipal Landfill",
    "npl_site_score": 29.49,
    "npd_latitude": 43.5302,
    "npl_longitude": -70.4815,
    "pfas": true
  },
  {
    "pfas_sample_id": "KITB-768-01",
    "miles": 5,
    "study": "AHHS",
    "pi": "HUD",
    "units": "ng/g",
    "medium": "dust",
    "pfas_latitude": 42.80757172,
    "pfas_longitude": -71.29946396,
    "ogc_fid": 931,
    "npl_site_name": "Tinkham Garage",
    "npl_site_score": 43.24,
    "npd_latitude": 42.860831,
    "npl_longitude": -71.351111,
    "pfas": true
  },
  {
    "pfas_sample_id": "KITB-715-01",
    "miles": 5,
    "study": "AHHS",
    "pi": "HUD",
    "units": "ng/g",
    "medium": "dust",
    "pfas_latitude": 43.53565292,
    "pfas_longitude": -70.45771213,
    "ogc_fid": 237,
    "npl_site_name": "Saco Municipal Landfill",
    "npl_site_score": 29.49,
    "npd_latitude": 43.5302,
    "npl_longitude": -70.4815,
    "pfas": true
  },
  {
    "pfas_sample_id": "KITB-715-01",
    "miles": 5,
    "study": "AHHS",
    "pi": "HUD",
    "units": "ng/g",
    "medium": "dust",
    "pfas_latitude": 43.53565292,
    "pfas_longitude": -70.45771213,
    "ogc_fid": 238,
    "npl_site_name": "Saco Tannery Waste Pits",
    "npl_site_score": 43.19,
    "npd_latitude": 43.56055,
    "npl_longitude": -70.426389,
    "pfas": true
  },
  {
    "pfas_sample_id": "KITB-016-WQ-05",
    "miles": 5,
    "study": "AHHS",
    "pi": "HUD",
    "units": "ng/L",
    "medium": "water",
    "pfas_latitude": 33.84439364,
    "pfas_longitude": -117.9517888,
    "ogc_fid": 369,
    "npl_site_name": "Orange County North Basin",
    "npl_site_score": 50.0,
    "npd_latitude": 33.854828,
    "npl_longitude": -117.930589,
    "pfas": true
  },
  {
    "pfas_sample_id": "KITB-022-WQ-05",
    "miles": 5,
    "study": "AHHS",
    "pi": "HUD",
    "units": "ng/L",
    "medium": "water",
    "pfas_latitude": 41.58813874,
    "pfas_longitude": -71.45892878,
    "ogc_fid": 1286,
    "npl_site_name": "Davisville Naval Construction Battalion Center",
    "npl_site_score": 34.52,
    "npd_latitude": 41.6095,
    "npl_longitude": -71.47422,
    "pfas": true
  },
  {
    "pfas_sample_id": "KITB-003-WQ-05",
    "miles": 5,
    "study": "AHHS",
    "pi": "HUD",
    "units": "ng/L",
    "medium": "water",
    "pfas_latitude": 42.38867691,
    "pfas_longitude": -71.54648036,
    "ogc_fid": 691,
    "npl_site_name": "Fort Devens-Sudbury Training Annex",
    "npl_site_score": 35.57,
    "npd_latitude": 42.406944,
    "npl_longitude": -71.475278,
    "pfas": true
  },
  {
    "pfas_sample_id": "KITB-023-WQ-05",
    "miles": 5,
    "study": "AHHS",
    "pi": "HUD",
    "units": "ng/L",
    "medium": "water",
    "pfas_latitude": 40.72314732,
    "pfas_longitude": -73.8436963,
    "ogc_fid": 1139,
    "npl_site_name": "Meeker Avenue Plume",
    "npl_site_score": 50.0,
    "npd_latitude": 40.725409,
    "npl_longitude": -73.935904,
    "pfas": true
  },
  {
    "pfas_sample_id": "KITB-045-WQ-05",
    "miles": 5,
    "study": "AHHS",
    "pi": "HUD",
    "units": "ng/L",
    "medium": "water",
    "pfas_latitude": 32.16995843,
    "pfas_longitude": -110.9465585,
    "ogc_fid": 447,
    "npl_site_name": "Tucson International Airport Area",
    "npl_site_score": 57.8,
    "npd_latitude": 32.105561,
    "npl_longitude": -110.9333,
    "pfas": true
  },
  {
    "pfas_sample_id": "KITB-054-WQ-05",
    "miles": 5,
    "study": "AHHS",
    "pi": "HUD",
    "units": "ng/L",
    "medium": "water",
    "pfas_latitude": 39.84007352,
    "pfas_longitude": -84.21114994,
    "ogc_fid": 1161,
    "npl_site_name": "Powell Road Landfill",
    "npl_site_score": 31.62,
    "npd_latitude": 39.833331,
    "npl_longitude": -84.16,
    "pfas": true
  },
  {
    "pfas_sample_id": "KITB-054-WQ-05",
    "miles": 5,
    "study": "AHHS",
    "pi": "HUD",
    "units": "ng/L",
    "medium": "water",
    "pfas_latitude": 39.84007352,
    "pfas_longitude": -84.21114994,
    "ogc_fid": 1176,
    "npl_site_name": "North Sanitary Landfill",
    "npl_site_score": 50.0,
    "npd_latitude": 39.78611,
    "npl_longitude": -84.1525,
    "pfas": true
  },
  {
    "pfas_sample_id": "KITB-135-05",
    "miles": 5,
    "study": "AHHS",
    "pi": "HUD",
    "units": "ng/L",
    "medium": "water",
    "pfas_latitude": 40.71971715,
    "pfas_longitude": -73.56041425,
    "ogc_fid": 1056,
    "npl_site_name": "Fulton Avenue",
    "npl_site_score": 33.08,
    "npd_latitude": 40.737337,
    "npl_longitude": -73.657844,
    "pfas": true
  },
  {
    "pfas_sample_id": "KITB-110-W-05",
    "miles": 5,
    "study": "AHHS",
    "pi": "HUD",
    "units": "ng/L",
    "medium": "water",
    "pfas_latitude": 40.74961379,
    "pfas_longitude": -73.8526032,
    "ogc_fid": 1139,
    "npl_site_name": "Meeker Avenue Plume",
    "npl_site_score": 50.0,
    "npd_latitude": 40.725409,
    "npl_longitude": -73.935904,
    "pfas": true
  },
  {
    "pfas_sample_id": "KITB-136-05",
    "miles": 5,
    "study": "AHHS",
    "pi": "HUD",
    "units": "ng/L",
    "medium": "water",
    "pfas_latitude": 21.4346938,
    "pfas_longitude": -157.9469544,
    "ogc_fid": 549,
    "npl_site_name": "Pearl Harbor Naval Complex",
    "npl_site_score": 70.82,
    "npd_latitude": 21.388889,
    "npl_longitude": -157.983333,
    "pfas": true
  },
  {
    "pfas_sample_id": "KITB-135-05",
    "miles": 5,
    "study": "AHHS",
    "pi": "HUD",
    "units": "ng/L",
    "medium": "water",
    "pfas_latitude": 40.71971715,
    "pfas_longitude": -73.56041425,
    "ogc_fid": 1118,
    "npl_site_name": "Old Roosevelt Field Contaminated Ground Water Area",
    "npl_site_score": 50.0,
    "npd_latitude": 40.733611,
    "npl_longitude": -73.618472,
    "pfas": true
  },
  {
    "pfas_sample_id": "KITB-135-05",
    "miles": 5,
    "study": "AHHS",
    "pi": "HUD",
    "units": "ng/L",
    "medium": "water",
    "pfas_latitude": 40.71971715,
    "pfas_longitude": -73.56041425,
    "ogc_fid": 1132,
    "npl_site_name": "New Cassel/Hicksville Ground Water Contamination",
    "npl_site_score": 50.0,
    "npd_latitude": 40.752446,
    "npl_longitude": -73.559781,
    "pfas": true
  },
  {
    "pfas_sample_id": "KITB-135-05",
    "miles": 5,
    "study": "AHHS",
    "pi": "HUD",
    "units": "ng/L",
    "medium": "water",
    "pfas_latitude": 40.71971715,
    "pfas_longitude": -73.56041425,
    "ogc_fid": 1574,
    "npl_site_name": "Pasley Solvents & Chemicals, Inc.",
    "npl_site_score": 39.65,
    "npd_latitude": 40.729169,
    "npl_longitude": -73.612219,
    "pfas": true
  },
  {
    "pfas_sample_id": "KITB-135-05",
    "miles": 5,
    "study": "AHHS",
    "pi": "HUD",
    "units": "ng/L",
    "medium": "water",
    "pfas_latitude": 40.71971715,
    "pfas_longitude": -73.56041425,
    "ogc_fid": 1575,
    "npl_site_name": "Hooker Chemical & Plastics Corp./Ruco Polymer Corp.",
    "npl_site_score": 41.6,
    "npd_latitude": 40.7575,
    "npl_longitude": -73.504169,
    "pfas": true
  },
  {
    "pfas_sample_id": "KITB-158-05",
    "miles": 5,
    "study": "AHHS",
    "pi": "HUD",
    "units": "ng/L",
    "medium": "water",
    "pfas_latitude": 33.87951098,
    "pfas_longitude": -117.8960354,
    "ogc_fid": 369,
    "npl_site_name": "Orange County North Basin",
    "npl_site_score": 50.0,
    "npd_latitude": 33.854828,
    "npl_longitude": -117.930589,
    "pfas": true
  },
  {
    "pfas_sample_id": "KITB-209-05",
    "miles": 5,
    "study": "AHHS",
    "pi": "HUD",
    "units": "ng/L",
    "medium": "water",
    "pfas_latitude": 40.77133301,
    "pfas_longitude": -72.99507568,
    "ogc_fid": 1593,
    "npl_site_name": "Goldisc Recordings, Inc.",
    "npl_site_score": 33.39,
    "npd_latitude": 40.7745,
    "npl_longitude": -73.0647,
    "pfas": true
  },
  {
    "pfas_sample_id": "KITB-151-05",
    "miles": 5,
    "study": "AHHS",
    "pi": "HUD",
    "units": "ng/L",
    "medium": "water",
    "pfas_latitude": 33.46511177,
    "pfas_longitude": -112.0477785,
    "ogc_fid": 453,
    "npl_site_name": "Motorola, Inc. (52nd Street Plant)",
    "npl_site_score": 40.83,
    "npd_latitude": 33.461669,
    "npl_longitude": -111.9708,
    "pfas": true
  },
  {
    "pfas_sample_id": "KITB-185-05",
    "miles": 5,
    "study": "AHHS",
    "pi": "HUD",
    "units": "ng/L",
    "medium": "water",
    "pfas_latitude": 40.81376196,
    "pfas_longitude": -74.21775369,
    "ogc_fid": 1093,
    "npl_site_name": "Orange Valley Regional Ground Water Contamination",
    "npl_site_score": 50.0,
    "npd_latitude": 40.779936,
    "npl_longitude": -74.225267,
    "pfas": true
  },
  {
    "pfas_sample_id": "KITB-185-05",
    "miles": 5,
    "study": "AHHS",
    "pi": "HUD",
    "units": "ng/L",
    "medium": "water",
    "pfas_latitude": 40.81376196,
    "pfas_longitude": -74.21775369,
    "ogc_fid": 1095,
    "npl_site_name": "Riverside Industrial Park",
    "npl_site_score": 50.0,
    "npd_latitude": 40.765722,
    "npl_longitude": -74.159084,
    "pfas": true
  },
  {
    "pfas_sample_id": "KITB-193-05",
    "miles": 5,
    "study": "AHHS",
    "pi": "HUD",
    "units": "ng/L",
    "medium": "water",
    "pfas_latitude": 34.1367764,
    "pfas_longitude": -118.2433996,
    "ogc_fid": 484,
    "npl_site_name": "San Fernando Valley (Area 4)",
    "npl_site_score": 35.57,
    "npd_latitude": 34.112081,
    "npl_longitude": -118.2539,
    "pfas": true
  },
  {
    "pfas_sample_id": "KITB-193-05",
    "miles": 5,
    "study": "AHHS",
    "pi": "HUD",
    "units": "ng/L",
    "medium": "water",
    "pfas_latitude": 34.1367764,
    "pfas_longitude": -118.2433996,
    "ogc_fid": 482,
    "npl_site_name": "San Fernando Valley (Area 2)",
    "npl_site_score": 42.24,
    "npd_latitude": 34.163139,
    "npl_longitude": -118.286,
    "pfas": true
  },
  {
    "pfas_sample_id": "KITB-211-05",
    "miles": 5,
    "study": "AHHS",
    "pi": "HUD",
    "units": "ng/L",
    "medium": "water",
    "pfas_latitude": 40.72426518,
    "pfas_longitude": -74.23175315,
    "ogc_fid": 1093,
    "npl_site_name": "Orange Valley Regional Ground Water Contamination",
    "npl_site_score": 50.0,
    "npd_latitude": 40.779936,
    "npl_longitude": -74.225267,
    "pfas": true
  },
  {
    "pfas_sample_id": "KITB-197-05",
    "miles": 5,
    "study": "AHHS",
    "pi": "HUD",
    "units": "ng/L",
    "medium": "water",
    "pfas_latitude": 43.11028763,
    "pfas_longitude": -70.73196183,
    "ogc_fid": 242,
    "npl_site_name": "Portsmouth Naval Shipyard",
    "npl_site_score": 50.0,
    "npd_latitude": 43.084167,
    "npl_longitude": -70.741666,
    "pfas": true
  },
  {
    "pfas_sample_id": "KITB-197-05",
    "miles": 5,
    "study": "AHHS",
    "pi": "HUD",
    "units": "ng/L",
    "medium": "water",
    "pfas_latitude": 43.11028763,
    "pfas_longitude": -70.73196183,
    "ogc_fid": 940,
    "npl_site_name": "Pease Air Force Base",
    "npl_site_score": 39.42,
    "npd_latitude": 43.080169,
    "npl_longitude": -70.82125,
    "pfas": true
  },
  {
    "pfas_sample_id": "KITB-211-05",
    "miles": 5,
    "study": "AHHS",
    "pi": "HUD",
    "units": "ng/L",
    "medium": "water",
    "pfas_latitude": 40.72426518,
    "pfas_longitude": -74.23175315,
    "ogc_fid": 1095,
    "npl_site_name": "Riverside Industrial Park",
    "npl_site_score": 50.0,
    "npd_latitude": 40.765722,
    "npl_longitude": -74.159084,
    "pfas": true
  },
  {
    "pfas_sample_id": "KITB-211-05",
    "miles": 5,
    "study": "AHHS",
    "pi": "HUD",
    "units": "ng/L",
    "medium": "water",
    "pfas_latitude": 40.72426518,
    "pfas_longitude": -74.23175315,
    "ogc_fid": 1096,
    "npl_site_name": "Pierson's Creek",
    "npl_site_score": 47.99,
    "npd_latitude": 40.7163,
    "npl_longitude": -74.1452,
    "pfas": true
  },
  {
    "pfas_sample_id": "KITB-212-05",
    "miles": 5,
    "study": "AHHS",
    "pi": "HUD",
    "units": "ng/L",
    "medium": "water",
    "pfas_latitude": 33.87951098,
    "pfas_longitude": -117.8960354,
    "ogc_fid": 369,
    "npl_site_name": "Orange County North Basin",
    "npl_site_score": 50.0,
    "npd_latitude": 33.854828,
    "npl_longitude": -117.930589,
    "pfas": true
  },
  {
    "pfas_sample_id": "KITB-217-05",
    "miles": 5,
    "study": "AHHS",
    "pi": "HUD",
    "units": "ng/L",
    "medium": "water",
    "pfas_latitude": 21.33934124,
    "pfas_longitude": -158.0165129,
    "ogc_fid": 549,
    "npl_site_name": "Pearl Harbor Naval Complex",
    "npl_site_score": 70.82,
    "npd_latitude": 21.388889,
    "npl_longitude": -157.983333,
    "pfas": true
  },
  {
    "pfas_sample_id": "KITB-222-05",
    "miles": 5,
    "study": "AHHS",
    "pi": "HUD",
    "units": "ng/L",
    "medium": "water",
    "pfas_latitude": 39.79087637,
    "pfas_longitude": -86.21472215,
    "ogc_fid": 157,
    "npl_site_name": "Reilly Tar & Chemical Corp. (Indianapolis Plant)",
    "npl_site_score": 34.03,
    "npd_latitude": 39.740281,
    "npl_longitude": -86.218331,
    "pfas": true
  },
  {
    "pfas_sample_id": "KITB-218-05",
    "miles": 5,
    "study": "AHHS",
    "pi": "HUD",
    "units": "ng/L",
    "medium": "water",
    "pfas_latitude": 42.54998527,
    "pfas_longitude": -71.25205587,
    "ogc_fid": 202,
    "npl_site_name": "Olin Chemical",
    "npl_site_score": 50.0,
    "npd_latitude": 42.528056,
    "npl_longitude": -71.153889,
    "pfas": true
  },
  {
    "pfas_sample_id": "KITB-218-05",
    "miles": 5,
    "study": "AHHS",
    "pi": "HUD",
    "units": "ng/L",
    "medium": "water",
    "pfas_latitude": 42.54998527,
    "pfas_longitude": -71.25205587,
    "ogc_fid": 683,
    "npl_site_name": "Iron Horse Park",
    "npl_site_score": 42.93,
    "npd_latitude": 42.583331,
    "npl_longitude": -71.265269,
    "pfas": true
  },
  {
    "pfas_sample_id": "KITB-218-05",
    "miles": 5,
    "study": "AHHS",
    "pi": "HUD",
    "units": "ng/L",
    "medium": "water",
    "pfas_latitude": 42.54998527,
    "pfas_longitude": -71.25205587,
    "ogc_fid": 700,
    "npl_site_name": "Sutton Brook Disposal Area",
    "npl_site_score": 57.12,
    "npd_latitude": 42.598222,
    "npl_longitude": -71.183194,
    "pfas": true
  },
  {
    "pfas_sample_id": "KITB-242-05",
    "miles": 5,
    "study": "AHHS",
    "pi": "HUD",
    "units": "ng/L",
    "medium": "water",
    "pfas_latitude": 32.16995843,
    "pfas_longitude": -110.9465585,
    "ogc_fid": 447,
    "npl_site_name": "Tucson International Airport Area",
    "npl_site_score": 57.8,
    "npd_latitude": 32.105561,
    "npl_longitude": -110.9333,
    "pfas": true
  },
  {
    "pfas_sample_id": "KITB-246-05",
    "miles": 5,
    "study": "AHHS",
    "pi": "HUD",
    "units": "ng/L",
    "medium": "water",
    "pfas_latitude": 43.08423644,
    "pfas_longitude": -79.03912614,
    "ogc_fid": 1551,
    "npl_site_name": "Hooker (S Area)",
    "npl_site_score": 51.62,
    "npd_latitude": 43.0757,
    "npl_longitude": -79.0054,
    "pfas": true
  },
  {
    "pfas_sample_id": "KITB-253-05",
    "miles": 5,
    "study": "AHHS",
    "pi": "HUD",
    "units": "ng/L",
    "medium": "water",
    "pfas_latitude": 40.76259659,
    "pfas_longitude": -73.91328197,
    "ogc_fid": 1139,
    "npl_site_name": "Meeker Avenue Plume",
    "npl_site_score": 50.0,
    "npd_latitude": 40.725409,
    "npl_longitude": -73.935904,
    "pfas": true
  },
  {
    "pfas_sample_id": "KITB-289-05",
    "miles": 5,
    "study": "AHHS",
    "pi": "HUD",
    "units": "ng/L",
    "medium": "water",
    "pfas_latitude": 40.69161576,
    "pfas_longitude": -73.65073585,
    "ogc_fid": 1056,
    "npl_site_name": "Fulton Avenue",
    "npl_site_score": 33.08,
    "npd_latitude": 40.737337,
    "npl_longitude": -73.657844,
    "pfas": true
  },
  {
    "pfas_sample_id": "KITB-263-05",
    "miles": 5,
    "study": "AHHS",
    "pi": "HUD",
    "units": "ng/L",
    "medium": "water",
    "pfas_latitude": 40.77133301,
    "pfas_longitude": -72.99507568,
    "ogc_fid": 1593,
    "npl_site_name": "Goldisc Recordings, Inc.",
    "npl_site_score": 33.39,
    "npd_latitude": 40.7745,
    "npl_longitude": -73.0647,
    "pfas": true
  },
  {
    "pfas_sample_id": "KITB-265-05",
    "miles": 5,
    "study": "AHHS",
    "pi": "HUD",
    "units": "ng/L",
    "medium": "water",
    "pfas_latitude": 42.72210209,
    "pfas_longitude": -71.49548396,
    "ogc_fid": 669,
    "npl_site_name": "Charles-George Reclamation Trust Landfill",
    "npl_site_score": 47.2,
    "npd_latitude": 42.66945,
    "npl_longitude": -71.443339,
    "pfas": true
  },
  {
    "pfas_sample_id": "KITB-265-05",
    "miles": 5,
    "study": "AHHS",
    "pi": "HUD",
    "units": "ng/L",
    "medium": "water",
    "pfas_latitude": 42.72210209,
    "pfas_longitude": -71.49548396,
    "ogc_fid": 930,
    "npl_site_name": "Sylvester",
    "npl_site_score": null,
    "npd_latitude": 42.7197,
    "npl_longitude": -71.523111,
    "pfas": true
  },
  {
    "pfas_sample_id": "KITB-289-05",
    "miles": 5,
    "study": "AHHS",
    "pi": "HUD",
    "units": "ng/L",
    "medium": "water",
    "pfas_latitude": 40.69161576,
    "pfas_longitude": -73.65073585,
    "ogc_fid": 1118,
    "npl_site_name": "Old Roosevelt Field Contaminated Ground Water Area",
    "npl_site_score": 50.0,
    "npd_latitude": 40.733611,
    "npl_longitude": -73.618472,
    "pfas": true
  },
  {
    "pfas_sample_id": "KITB-289-05",
    "miles": 5,
    "study": "AHHS",
    "pi": "HUD",
    "units": "ng/L",
    "medium": "water",
    "pfas_latitude": 40.69161576,
    "pfas_longitude": -73.65073585,
    "ogc_fid": 1574,
    "npl_site_name": "Pasley Solvents & Chemicals, Inc.",
    "npl_site_score": 39.65,
    "npd_latitude": 40.729169,
    "npl_longitude": -73.612219,
    "pfas": true
  },
  {
    "pfas_sample_id": "KITB-289-05",
    "miles": 5,
    "study": "AHHS",
    "pi": "HUD",
    "units": "ng/L",
    "medium": "water",
    "pfas_latitude": 40.69161576,
    "pfas_longitude": -73.65073585,
    "ogc_fid": 1610,
    "npl_site_name": "Genzale Plating Co.",
    "npl_site_score": 33.79,
    "npd_latitude": 40.7153,
    "npl_longitude": -73.6777,
    "pfas": true
  },
  {
    "pfas_sample_id": "KITB-396-05",
    "miles": 5,
    "study": "AHHS",
    "pi": "HUD",
    "units": "ng/L",
    "medium": "water",
    "pfas_latitude": 21.48773699,
    "pfas_longitude": -157.960266,
    "ogc_fid": 548,
    "npl_site_name": "Schofield Barracks (USARMY)",
    "npl_site_score": 28.9,
    "npd_latitude": 21.490694,
    "npl_longitude": -158.030139,
    "pfas": true
  },
  {
    "pfas_sample_id": "KITB-301-05",
    "miles": 5,
    "study": "AHHS",
    "pi": "HUD",
    "units": "ng/L",
    "medium": "water",
    "pfas_latitude": 34.12797276,
    "pfas_longitude": -118.3290441,
    "ogc_fid": 484,
    "npl_site_name": "San Fernando Valley (Area 4)",
    "npl_site_score": 35.57,
    "npd_latitude": 34.112081,
    "npl_longitude": -118.2539,
    "pfas": true
  },
  {
    "pfas_sample_id": "KITB-301-05",
    "miles": 5,
    "study": "AHHS",
    "pi": "HUD",
    "units": "ng/L",
    "medium": "water",
    "pfas_latitude": 34.12797276,
    "pfas_longitude": -118.3290441,
    "ogc_fid": 481,
    "npl_site_name": "San Fernando Valley (Area 1)",
    "npl_site_score": 42.24,
    "npd_latitude": 34.19,
    "npl_longitude": -118.3514,
    "pfas": true
  },
  {
    "pfas_sample_id": "KITB-301-05",
    "miles": 5,
    "study": "AHHS",
    "pi": "HUD",
    "units": "ng/L",
    "medium": "water",
    "pfas_latitude": 34.12797276,
    "pfas_longitude": -118.3290441,
    "ogc_fid": 482,
    "npl_site_name": "San Fernando Valley (Area 2)",
    "npl_site_score": 42.24,
    "npd_latitude": 34.163139,
    "npl_longitude": -118.286,
    "pfas": true
  },
  {
    "pfas_sample_id": "KITB-311-05",
    "miles": 5,
    "study": "AHHS",
    "pi": "HUD",
    "units": "ng/L",
    "medium": "water",
    "pfas_latitude": 43.18934389,
    "pfas_longitude": -70.88430562,
    "ogc_fid": 926,
    "npl_site_name": "Dover Municipal Landfill",
    "npl_site_score": 36.98,
    "npd_latitude": 43.2125,
    "npl_longitude": -70.953,
    "pfas": true
  },
  {
    "pfas_sample_id": "KITB-311-05",
    "miles": 5,
    "study": "AHHS",
    "pi": "HUD",
    "units": "ng/L",
    "medium": "water",
    "pfas_latitude": 43.18934389,
    "pfas_longitude": -70.88430562,
    "ogc_fid": 929,
    "npl_site_name": "Somersworth Sanitary Landfill",
    "npl_site_score": 65.56,
    "npd_latitude": 43.2489,
    "npl_longitude": -70.8845,
    "pfas": true
  },
  {
    "pfas_sample_id": "KITB-339-05",
    "miles": 5,
    "study": "AHHS",
    "pi": "HUD",
    "units": "ng/L",
    "medium": "water",
    "pfas_latitude": 34.23183613,
    "pfas_longitude": -118.3660127,
    "ogc_fid": 481,
    "npl_site_name": "San Fernando Valley (Area 1)",
    "npl_site_score": 42.24,
    "npd_latitude": 34.19,
    "npl_longitude": -118.3514,
    "pfas": true
  },
  {
    "pfas_sample_id": "KITB-345-05",
    "miles": 5,
    "study": "AHHS",
    "pi": "HUD",
    "units": "ng/L",
    "medium": "water",
    "pfas_latitude": 39.23538925,
    "pfas_longitude": -84.46220077,
    "ogc_fid": 1154,
    "npl_site_name": "Pristine, Inc.",
    "npl_site_score": 35.25,
    "npd_latitude": 39.236111,
    "npl_longitude": -84.437231,
    "pfas": true
  },
  {
    "pfas_sample_id": "KITB-414-05",
    "miles": 5,
    "study": "AHHS",
    "pi": "HUD",
    "units": "ng/L",
    "medium": "water",
    "pfas_latitude": 21.48773699,
    "pfas_longitude": -157.960266,
    "ogc_fid": 548,
    "npl_site_name": "Schofield Barracks (USARMY)",
    "npl_site_score": 28.9,
    "npd_latitude": 21.490694,
    "npl_longitude": -158.030139,
    "pfas": true
  },
  {
    "pfas_sample_id": "KITB-443-05",
    "miles": 5,
    "study": "AHHS",
    "pi": "HUD",
    "units": "ng/L",
    "medium": "water",
    "pfas_latitude": 36.79993981,
    "pfas_longitude": -76.27523412,
    "ogc_fid": 1370,
    "npl_site_name": "Norfolk Naval Shipyard",
    "npl_site_score": 50.0,
    "npd_latitude": 36.821944,
    "npl_longitude": -76.294722,
    "pfas": true
  },
  {
    "pfas_sample_id": "KITB-381-05",
    "miles": 5,
    "study": "AHHS",
    "pi": "HUD",
    "units": "ng/L",
    "medium": "water",
    "pfas_latitude": 41.76719503,
    "pfas_longitude": -71.46550576,
    "ogc_fid": 1284,
    "npl_site_name": "Central Landfill",
    "npl_site_score": 46.71,
    "npd_latitude": 41.808331,
    "npl_longitude": -71.534719,
    "pfas": true
  },
  {
    "pfas_sample_id": "KITB-426-05",
    "miles": 5,
    "study": "AHHS",
    "pi": "HUD",
    "units": "ng/L",
    "medium": "water",
    "pfas_latitude": 39.84007352,
    "pfas_longitude": -84.21114994,
    "ogc_fid": 1161,
    "npl_site_name": "Powell Road Landfill",
    "npl_site_score": 31.62,
    "npd_latitude": 39.833331,
    "npl_longitude": -84.16,
    "pfas": true
  },
  {
    "pfas_sample_id": "KITB-426-05",
    "miles": 5,
    "study": "AHHS",
    "pi": "HUD",
    "units": "ng/L",
    "medium": "water",
    "pfas_latitude": 39.84007352,
    "pfas_longitude": -84.21114994,
    "ogc_fid": 1176,
    "npl_site_name": "North Sanitary Landfill",
    "npl_site_score": 50.0,
    "npd_latitude": 39.78611,
    "npl_longitude": -84.1525,
    "pfas": true
  },
  {
    "pfas_sample_id": "KITB-443-05",
    "miles": 5,
    "study": "AHHS",
    "pi": "HUD",
    "units": "ng/L",
    "medium": "water",
    "pfas_latitude": 36.79993981,
    "pfas_longitude": -76.27523412,
    "ogc_fid": 1375,
    "npl_site_name": "St. Juliens Creek Annex (U.S. Navy)",
    "npl_site_score": 50.0,
    "npd_latitude": 36.794167,
    "npl_longitude": -76.312222,
    "pfas": true
  },
  {
    "pfas_sample_id": "KITB-444-05",
    "miles": 5,
    "study": "AHHS",
    "pi": "HUD",
    "units": "ng/L",
    "medium": "water",
    "pfas_latitude": 40.74961379,
    "pfas_longitude": -73.8526032,
    "ogc_fid": 1139,
    "npl_site_name": "Meeker Avenue Plume",
    "npl_site_score": 50.0,
    "npd_latitude": 40.725409,
    "npl_longitude": -73.935904,
    "pfas": true
  },
  {
    "pfas_sample_id": "KITB-428-05",
    "miles": 5,
    "study": "AHHS",
    "pi": "HUD",
    "units": "ng/L",
    "medium": "water",
    "pfas_latitude": 39.79087637,
    "pfas_longitude": -86.21472215,
    "ogc_fid": 157,
    "npl_site_name": "Reilly Tar & Chemical Corp. (Indianapolis Plant)",
    "npl_site_score": 34.03,
    "npd_latitude": 39.740281,
    "npl_longitude": -86.218331,
    "pfas": true
  },
  {
    "pfas_sample_id": "KITB-476-05",
    "miles": 5,
    "study": "AHHS",
    "pi": "HUD",
    "units": "ng/L",
    "medium": "water",
    "pfas_latitude": 42.38867691,
    "pfas_longitude": -71.54648036,
    "ogc_fid": 691,
    "npl_site_name": "Fort Devens-Sudbury Training Annex",
    "npl_site_score": 35.57,
    "npd_latitude": 42.406944,
    "npl_longitude": -71.475278,
    "pfas": true
  },
  {
    "pfas_sample_id": "KITB-433-05",
    "miles": 5,
    "study": "AHHS",
    "pi": "HUD",
    "units": "ng/L",
    "medium": "water",
    "pfas_latitude": 37.36982579,
    "pfas_longitude": -122.0734023,
    "ogc_fid": 303,
    "npl_site_name": "Fairchild Semiconductor Corp. (Mountain View Plant)",
    "npl_site_score": 31.94,
    "npd_latitude": 37.4012,
    "npl_longitude": -122.0542,
    "pfas": true
  },
  {
    "pfas_sample_id": "KITB-433-05",
    "miles": 5,
    "study": "AHHS",
    "pi": "HUD",
    "units": "ng/L",
    "medium": "water",
    "pfas_latitude": 37.36982579,
    "pfas_longitude": -122.0734023,
    "ogc_fid": 305,
    "npl_site_name": "Intel Corp. (Mountain View Plant)",
    "npl_site_score": 29.76,
    "npd_latitude": 37.3962,
    "npl_longitude": -122.0566,
    "pfas": true
  },
  {
    "pfas_sample_id": "KITB-433-05",
    "miles": 5,
    "study": "AHHS",
    "pi": "HUD",
    "units": "ng/L",
    "medium": "water",
    "pfas_latitude": 37.36982579,
    "pfas_longitude": -122.0734023,
    "ogc_fid": 306,
    "npl_site_name": "Raytheon Corp.",
    "npl_site_score": 29.76,
    "npd_latitude": 37.3975,
    "npl_longitude": -122.0533,
    "pfas": true
  },
  {
    "pfas_sample_id": "KITB-433-05",
    "miles": 5,
    "study": "AHHS",
    "pi": "HUD",
    "units": "ng/L",
    "medium": "water",
    "pfas_latitude": 37.36982579,
    "pfas_longitude": -122.0734023,
    "ogc_fid": 307,
    "npl_site_name": "Moffett Naval Air Station",
    "npl_site_score": 29.49,
    "npd_latitude": 37.411389,
    "npl_longitude": -122.0522,
    "pfas": true
  },
  {
    "pfas_sample_id": "KITB-459-05",
    "miles": 5,
    "study": "AHHS",
    "pi": "HUD",
    "units": "ng/L",
    "medium": "water",
    "pfas_latitude": 41.54466206,
    "pfas_longitude": -87.36944553,
    "ogc_fid": 148,
    "npl_site_name": "Lake Sandy Jo (M&M Landfill)",
    "npl_site_score": 38.21,
    "npd_latitude": 41.570839,
    "npl_longitude": -87.382231,
    "pfas": true
  },
  {
    "pfas_sample_id": "KITB-480-05",
    "miles": 5,
    "study": "AHHS",
    "pi": "HUD",
    "units": "ng/L",
    "medium": "water",
    "pfas_latitude": 41.54466206,
    "pfas_longitude": -87.36944553,
    "ogc_fid": 148,
    "npl_site_name": "Lake Sandy Jo (M&M Landfill)",
    "npl_site_score": 38.21,
    "npd_latitude": 41.570839,
    "npl_longitude": -87.382231,
    "pfas": true
  },
  {
    "pfas_sample_id": "KITB-460-05",
    "miles": 5,
    "study": "AHHS",
    "pi": "HUD",
    "units": "ng/L",
    "medium": "water",
    "pfas_latitude": 42.38867691,
    "pfas_longitude": -71.54648036,
    "ogc_fid": 691,
    "npl_site_name": "Fort Devens-Sudbury Training Annex",
    "npl_site_score": 35.57,
    "npd_latitude": 42.406944,
    "npl_longitude": -71.475278,
    "pfas": true
  },
  {
    "pfas_sample_id": "KITB-492-05",
    "miles": 5,
    "study": "AHHS",
    "pi": "HUD",
    "units": "ng/L",
    "medium": "water",
    "pfas_latitude": 43.10196407,
    "pfas_longitude": -78.9527894,
    "ogc_fid": 1551,
    "npl_site_name": "Hooker (S Area)",
    "npl_site_score": 51.62,
    "npd_latitude": 43.0757,
    "npl_longitude": -79.0054,
    "pfas": true
  },
  {
    "pfas_sample_id": "KITB-472-05",
    "miles": 5,
    "study": "AHHS",
    "pi": "HUD",
    "units": "ng/L",
    "medium": "water",
    "pfas_latitude": 39.66466884,
    "pfas_longitude": -84.24060555,
    "ogc_fid": 1167,
    "npl_site_name": "Sanitary Landfill Co. (Industrial Waste Disposal Co., Inc.)",
    "npl_site_score": 35.57,
    "npd_latitude": 39.716581,
    "npl_longitude": -84.201531,
    "pfas": true
  },
  {
    "pfas_sample_id": "KITB-472-05",
    "miles": 5,
    "study": "AHHS",
    "pi": "HUD",
    "units": "ng/L",
    "medium": "water",
    "pfas_latitude": 39.66466884,
    "pfas_longitude": -84.24060555,
    "ogc_fid": 1182,
    "npl_site_name": "South Dayton Dump & Landfill",
    "npl_site_score": 48.63,
    "npd_latitude": 39.729444,
    "npl_longitude": -84.219444,
    "pfas": true
  },
  {
    "pfas_sample_id": "KITB-513-05",
    "miles": 5,
    "study": "AHHS",
    "pi": "HUD",
    "units": "ng/L",
    "medium": "water",
    "pfas_latitude": 43.10196407,
    "pfas_longitude": -78.9527894,
    "ogc_fid": 1551,
    "npl_site_name": "Hooker (S Area)",
    "npl_site_score": 51.62,
    "npd_latitude": 43.0757,
    "npl_longitude": -79.0054,
    "pfas": true
  },
  {
    "pfas_sample_id": "KITB-526-05",
    "miles": 5,
    "study": "AHHS",
    "pi": "HUD",
    "units": "ng/L",
    "medium": "water",
    "pfas_latitude": 41.5221434,
    "pfas_longitude": -87.42090616,
    "ogc_fid": 148,
    "npl_site_name": "Lake Sandy Jo (M&M Landfill)",
    "npl_site_score": 38.21,
    "npd_latitude": 41.570839,
    "npl_longitude": -87.382231,
    "pfas": true
  },
  {
    "pfas_sample_id": "KITB-506-05",
    "miles": 5,
    "study": "AHHS",
    "pi": "HUD",
    "units": "ng/L",
    "medium": "water",
    "pfas_latitude": 39.78441756,
    "pfas_longitude": -84.24178971,
    "ogc_fid": 1176,
    "npl_site_name": "North Sanitary Landfill",
    "npl_site_score": 50.0,
    "npd_latitude": 39.78611,
    "npl_longitude": -84.1525,
    "pfas": true
  },
  {
    "pfas_sample_id": "KITB-506-05",
    "miles": 5,
    "study": "AHHS",
    "pi": "HUD",
    "units": "ng/L",
    "medium": "water",
    "pfas_latitude": 39.78441756,
    "pfas_longitude": -84.24178971,
    "ogc_fid": 1182,
    "npl_site_name": "South Dayton Dump & Landfill",
    "npl_site_score": 48.63,
    "npd_latitude": 39.729444,
    "npl_longitude": -84.219444,
    "pfas": true
  },
  {
    "pfas_sample_id": "KITB-527-05",
    "miles": 5,
    "study": "AHHS",
    "pi": "HUD",
    "units": "ng/L",
    "medium": "water",
    "pfas_latitude": 33.48207072,
    "pfas_longitude": -112.4051699,
    "ogc_fid": 445,
    "npl_site_name": "Phoenix-Goodyear Airport Area",
    "npl_site_score": 45.91,
    "npd_latitude": 33.429719,
    "npl_longitude": -112.3653,
    "pfas": true
  },
  {
    "pfas_sample_id": "KITB-527-05",
    "miles": 5,
    "study": "AHHS",
    "pi": "HUD",
    "units": "ng/L",
    "medium": "water",
    "pfas_latitude": 33.48207072,
    "pfas_longitude": -112.4051699,
    "ogc_fid": 450,
    "npl_site_name": "Luke Air Force Base",
    "npl_site_score": 37.93,
    "npd_latitude": 33.54,
    "npl_longitude": -112.3567,
    "pfas": true
  },
  {
    "pfas_sample_id": "KITB-552-05",
    "miles": 5,
    "study": "AHHS",
    "pi": "HUD",
    "units": "ng/L",
    "medium": "water",
    "pfas_latitude": 39.79087637,
    "pfas_longitude": -86.21472215,
    "ogc_fid": 157,
    "npl_site_name": "Reilly Tar & Chemical Corp. (Indianapolis Plant)",
    "npl_site_score": 34.03,
    "npd_latitude": 39.740281,
    "npl_longitude": -86.218331,
    "pfas": true
  },
  {
    "pfas_sample_id": "KITB-558-05",
    "miles": 5,
    "study": "AHHS",
    "pi": "HUD",
    "units": "ng/L",
    "medium": "water",
    "pfas_latitude": 39.66466884,
    "pfas_longitude": -84.24060555,
    "ogc_fid": 1167,
    "npl_site_name": "Sanitary Landfill Co. (Industrial Waste Disposal Co., Inc.)",
    "npl_site_score": 35.57,
    "npd_latitude": 39.716581,
    "npl_longitude": -84.201531,
    "pfas": true
  },
  {
    "pfas_sample_id": "KITB-558-05",
    "miles": 5,
    "study": "AHHS",
    "pi": "HUD",
    "units": "ng/L",
    "medium": "water",
    "pfas_latitude": 39.66466884,
    "pfas_longitude": -84.24060555,
    "ogc_fid": 1182,
    "npl_site_name": "South Dayton Dump & Landfill",
    "npl_site_score": 48.63,
    "npd_latitude": 39.729444,
    "npl_longitude": -84.219444,
    "pfas": true
  },
  {
    "pfas_sample_id": "KITB-601-05",
    "miles": 5,
    "study": "AHHS",
    "pi": "HUD",
    "units": "ng/L",
    "medium": "water",
    "pfas_latitude": 42.80757172,
    "pfas_longitude": -71.29946396,
    "ogc_fid": 931,
    "npl_site_name": "Tinkham Garage",
    "npl_site_score": 43.24,
    "npd_latitude": 42.860831,
    "npl_longitude": -71.351111,
    "pfas": true
  },
  {
    "pfas_sample_id": "KITB-545-05",
    "miles": 5,
    "study": "AHHS",
    "pi": "HUD",
    "units": "ng/L",
    "medium": "water",
    "pfas_latitude": 40.72314732,
    "pfas_longitude": -73.8436963,
    "ogc_fid": 1139,
    "npl_site_name": "Meeker Avenue Plume",
    "npl_site_score": 50.0,
    "npd_latitude": 40.725409,
    "npl_longitude": -73.935904,
    "pfas": true
  },
  {
    "pfas_sample_id": "KITB-548-05",
    "miles": 5,
    "study": "AHHS",
    "pi": "HUD",
    "units": "ng/L",
    "medium": "water",
    "pfas_latitude": 34.1367764,
    "pfas_longitude": -118.2433996,
    "ogc_fid": 484,
    "npl_site_name": "San Fernando Valley (Area 4)",
    "npl_site_score": 35.57,
    "npd_latitude": 34.112081,
    "npl_longitude": -118.2539,
    "pfas": true
  },
  {
    "pfas_sample_id": "KITB-548-05",
    "miles": 5,
    "study": "AHHS",
    "pi": "HUD",
    "units": "ng/L",
    "medium": "water",
    "pfas_latitude": 34.1367764,
    "pfas_longitude": -118.2433996,
    "ogc_fid": 482,
    "npl_site_name": "San Fernando Valley (Area 2)",
    "npl_site_score": 42.24,
    "npd_latitude": 34.163139,
    "npl_longitude": -118.286,
    "pfas": true
  },
  {
    "pfas_sample_id": "KITB-549-05",
    "miles": 5,
    "study": "AHHS",
    "pi": "HUD",
    "units": "ng/L",
    "medium": "water",
    "pfas_latitude": 42.94380762,
    "pfas_longitude": -77.82789691,
    "ogc_fid": 1615,
    "npl_site_name": "Jones Chemicals, Inc.",
    "npl_site_score": 33.62,
    "npd_latitude": 42.976531,
    "npl_longitude": -77.845561,
    "pfas": true
  },
  {
    "pfas_sample_id": "KITB-602-05",
    "miles": 5,
    "study": "AHHS",
    "pi": "HUD",
    "units": "ng/L",
    "medium": "water",
    "pfas_latitude": 40.75898562,
    "pfas_longitude": -73.73584924,
    "ogc_fid": 1056,
    "npl_site_name": "Fulton Avenue",
    "npl_site_score": 33.08,
    "npd_latitude": 40.737337,
    "npl_longitude": -73.657844,
    "pfas": true
  },
  {
    "pfas_sample_id": "KITB-602-05",
    "miles": 5,
    "study": "AHHS",
    "pi": "HUD",
    "units": "ng/L",
    "medium": "water",
    "pfas_latitude": 40.75898562,
    "pfas_longitude": -73.73584924,
    "ogc_fid": 1114,
    "npl_site_name": "Stanton Cleaners Area Ground Water Contamination",
    "npl_site_score": 35.76,
    "npd_latitude": 40.782361,
    "npl_longitude": -73.734139,
    "pfas": true
  },
  {
    "pfas_sample_id": "KITB-602-05",
    "miles": 5,
    "study": "AHHS",
    "pi": "HUD",
    "units": "ng/L",
    "medium": "water",
    "pfas_latitude": 40.75898562,
    "pfas_longitude": -73.73584924,
    "ogc_fid": 1610,
    "npl_site_name": "Genzale Plating Co.",
    "npl_site_score": 33.79,
    "npd_latitude": 40.7153,
    "npl_longitude": -73.6777,
    "pfas": true
  },
  {
    "pfas_sample_id": "KITB-607-05",
    "miles": 5,
    "study": "AHHS",
    "pi": "HUD",
    "units": "ng/L",
    "medium": "water",
    "pfas_latitude": 42.72210209,
    "pfas_longitude": -71.49548396,
    "ogc_fid": 669,
    "npl_site_name": "Charles-George Reclamation Trust Landfill",
    "npl_site_score": 47.2,
    "npd_latitude": 42.66945,
    "npl_longitude": -71.443339,
    "pfas": true
  },
  {
    "pfas_sample_id": "KITB-607-05",
    "miles": 5,
    "study": "AHHS",
    "pi": "HUD",
    "units": "ng/L",
    "medium": "water",
    "pfas_latitude": 42.72210209,
    "pfas_longitude": -71.49548396,
    "ogc_fid": 930,
    "npl_site_name": "Sylvester",
    "npl_site_score": null,
    "npd_latitude": 42.7197,
    "npl_longitude": -71.523111,
    "pfas": true
  },
  {
    "pfas_sample_id": "KITB-634-WQ-05",
    "miles": 5,
    "study": "AHHS",
    "pi": "HUD",
    "units": "ng/L",
    "medium": "water",
    "pfas_latitude": 34.06638128,
    "pfas_longitude": -118.3098315,
    "ogc_fid": 484,
    "npl_site_name": "San Fernando Valley (Area 4)",
    "npl_site_score": 35.57,
    "npd_latitude": 34.112081,
    "npl_longitude": -118.2539,
    "pfas": true
  },
  {
    "pfas_sample_id": "KITB-611-05",
    "miles": 5,
    "study": "AHHS",
    "pi": "HUD",
    "units": "ng/L",
    "medium": "water",
    "pfas_latitude": 42.80757172,
    "pfas_longitude": -71.29946396,
    "ogc_fid": 931,
    "npl_site_name": "Tinkham Garage",
    "npl_site_score": 43.24,
    "npd_latitude": 42.860831,
    "npl_longitude": -71.351111,
    "pfas": true
  },
  {
    "pfas_sample_id": "KITB-635-WQ-05",
    "miles": 5,
    "study": "AHHS",
    "pi": "HUD",
    "units": "ng/L",
    "medium": "water",
    "pfas_latitude": 38.63406937,
    "pfas_longitude": -75.62453834,
    "ogc_fid": 38,
    "npl_site_name": "Blades Groundwater",
    "npl_site_score": 50.0,
    "npd_latitude": 38.631644,
    "npl_longitude": -75.610467,
    "pfas": true
  },
  {
    "pfas_sample_id": "KITB-637-WQ-05",
    "miles": 5,
    "study": "AHHS",
    "pi": "HUD",
    "units": "ng/L",
    "medium": "water",
    "pfas_latitude": 40.71971715,
    "pfas_longitude": -73.56041425,
    "ogc_fid": 1056,
    "npl_site_name": "Fulton Avenue",
    "npl_site_score": 33.08,
    "npd_latitude": 40.737337,
    "npl_longitude": -73.657844,
    "pfas": true
  },
  {
    "pfas_sample_id": "KITB-616-05",
    "miles": 5,
    "study": "AHHS",
    "pi": "HUD",
    "units": "ng/L",
    "medium": "water",
    "pfas_latitude": 40.75143574,
    "pfas_longitude": -73.82122692,
    "ogc_fid": 1114,
    "npl_site_name": "Stanton Cleaners Area Ground Water Contamination",
    "npl_site_score": 35.76,
    "npd_latitude": 40.782361,
    "npl_longitude": -73.734139,
    "pfas": true
  },
  {
    "pfas_sample_id": "KITB-637-WQ-05",
    "miles": 5,
    "study": "AHHS",
    "pi": "HUD",
    "units": "ng/L",
    "medium": "water",
    "pfas_latitude": 40.71971715,
    "pfas_longitude": -73.56041425,
    "ogc_fid": 1118,
    "npl_site_name": "Old Roosevelt Field Contaminated Ground Water Area",
    "npl_site_score": 50.0,
    "npd_latitude": 40.733611,
    "npl_longitude": -73.618472,
    "pfas": true
  },
  {
    "pfas_sample_id": "KITB-637-WQ-05",
    "miles": 5,
    "study": "AHHS",
    "pi": "HUD",
    "units": "ng/L",
    "medium": "water",
    "pfas_latitude": 40.71971715,
    "pfas_longitude": -73.56041425,
    "ogc_fid": 1132,
    "npl_site_name": "New Cassel/Hicksville Ground Water Contamination",
    "npl_site_score": 50.0,
    "npd_latitude": 40.752446,
    "npl_longitude": -73.559781,
    "pfas": true
  },
  {
    "pfas_sample_id": "KITB-637-WQ-05",
    "miles": 5,
    "study": "AHHS",
    "pi": "HUD",
    "units": "ng/L",
    "medium": "water",
    "pfas_latitude": 40.71971715,
    "pfas_longitude": -73.56041425,
    "ogc_fid": 1574,
    "npl_site_name": "Pasley Solvents & Chemicals, Inc.",
    "npl_site_score": 39.65,
    "npd_latitude": 40.729169,
    "npl_longitude": -73.612219,
    "pfas": true
  },
  {
    "pfas_sample_id": "KITB-637-WQ-05",
    "miles": 5,
    "study": "AHHS",
    "pi": "HUD",
    "units": "ng/L",
    "medium": "water",
    "pfas_latitude": 40.71971715,
    "pfas_longitude": -73.56041425,
    "ogc_fid": 1575,
    "npl_site_name": "Hooker Chemical & Plastics Corp./Ruco Polymer Corp.",
    "npl_site_score": 41.6,
    "npd_latitude": 40.7575,
    "npl_longitude": -73.504169,
    "pfas": true
  },
  {
    "pfas_sample_id": "KITB-661-W-05",
    "miles": 5,
    "study": "AHHS",
    "pi": "HUD",
    "units": "ng/L",
    "medium": "water",
    "pfas_latitude": 43.53565292,
    "pfas_longitude": -70.45771213,
    "ogc_fid": 237,
    "npl_site_name": "Saco Municipal Landfill",
    "npl_site_score": 29.49,
    "npd_latitude": 43.5302,
    "npl_longitude": -70.4815,
    "pfas": true
  },
  {
    "pfas_sample_id": "KITB-669-W-05",
    "miles": 5,
    "study": "AHHS",
    "pi": "HUD",
    "units": "ng/L",
    "medium": "water",
    "pfas_latitude": 40.81035542,
    "pfas_longitude": -73.04187643,
    "ogc_fid": 1593,
    "npl_site_name": "Goldisc Recordings, Inc.",
    "npl_site_score": 33.39,
    "npd_latitude": 40.7745,
    "npl_longitude": -73.0647,
    "pfas": true
  },
  {
    "pfas_sample_id": "KITB-674-05",
    "miles": 5,
    "study": "AHHS",
    "pi": "HUD",
    "units": "ng/L",
    "medium": "water",
    "pfas_latitude": 43.18934389,
    "pfas_longitude": -70.88430562,
    "ogc_fid": 926,
    "npl_site_name": "Dover Municipal Landfill",
    "npl_site_score": 36.98,
    "npd_latitude": 43.2125,
    "npl_longitude": -70.953,
    "pfas": true
  },
  {
    "pfas_sample_id": "KITB-674-05",
    "miles": 5,
    "study": "AHHS",
    "pi": "HUD",
    "units": "ng/L",
    "medium": "water",
    "pfas_latitude": 43.18934389,
    "pfas_longitude": -70.88430562,
    "ogc_fid": 929,
    "npl_site_name": "Somersworth Sanitary Landfill",
    "npl_site_score": 65.56,
    "npd_latitude": 43.2489,
    "npl_longitude": -70.8845,
    "pfas": true
  },
  {
    "pfas_sample_id": "KITB-699-05",
    "miles": 5,
    "study": "AHHS",
    "pi": "HUD",
    "units": "ng/L",
    "medium": "water",
    "pfas_latitude": 43.47697474,
    "pfas_longitude": -70.4742515,
    "ogc_fid": 237,
    "npl_site_name": "Saco Municipal Landfill",
    "npl_site_score": 29.49,
    "npd_latitude": 43.5302,
    "npl_longitude": -70.4815,
    "pfas": true
  },
  {
    "pfas_sample_id": "KITB-661-W-05",
    "miles": 5,
    "study": "AHHS",
    "pi": "HUD",
    "units": "ng/L",
    "medium": "water",
    "pfas_latitude": 43.53565292,
    "pfas_longitude": -70.45771213,
    "ogc_fid": 238,
    "npl_site_name": "Saco Tannery Waste Pits",
    "npl_site_score": 43.19,
    "npd_latitude": 43.56055,
    "npl_longitude": -70.426389,
    "pfas": true
  },
  {
    "pfas_sample_id": "KITB-662-W-05",
    "miles": 5,
    "study": "AHHS",
    "pi": "HUD",
    "units": "ng/L",
    "medium": "water",
    "pfas_latitude": 21.4346938,
    "pfas_longitude": -157.9469544,
    "ogc_fid": 549,
    "npl_site_name": "Pearl Harbor Naval Complex",
    "npl_site_score": 70.82,
    "npd_latitude": 21.388889,
    "npl_longitude": -157.983333,
    "pfas": true
  },
  {
    "pfas_sample_id": "KITB-663-W-05",
    "miles": 5,
    "study": "AHHS",
    "pi": "HUD",
    "units": "ng/L",
    "medium": "water",
    "pfas_latitude": 34.08987479,
    "pfas_longitude": -118.2946306,
    "ogc_fid": 484,
    "npl_site_name": "San Fernando Valley (Area 4)",
    "npl_site_score": 35.57,
    "npd_latitude": 34.112081,
    "npl_longitude": -118.2539,
    "pfas": true
  },
  {
    "pfas_sample_id": "KITB-667-W-05",
    "miles": 5,
    "study": "AHHS",
    "pi": "HUD",
    "units": "ng/L",
    "medium": "water",
    "pfas_latitude": 42.80757172,
    "pfas_longitude": -71.29946396,
    "ogc_fid": 931,
    "npl_site_name": "Tinkham Garage",
    "npl_site_score": 43.24,
    "npd_latitude": 42.860831,
    "npl_longitude": -71.351111,
    "pfas": true
  },
  {
    "pfas_sample_id": "KITB-715-05",
    "miles": 5,
    "study": "AHHS",
    "pi": "HUD",
    "units": "ng/L",
    "medium": "water",
    "pfas_latitude": 43.53565292,
    "pfas_longitude": -70.45771213,
    "ogc_fid": 237,
    "npl_site_name": "Saco Municipal Landfill",
    "npl_site_score": 29.49,
    "npd_latitude": 43.5302,
    "npl_longitude": -70.4815,
    "pfas": true
  },
  {
    "pfas_sample_id": "KITB-715-05",
    "miles": 5,
    "study": "AHHS",
    "pi": "HUD",
    "units": "ng/L",
    "medium": "water",
    "pfas_latitude": 43.53565292,
    "pfas_longitude": -70.45771213,
    "ogc_fid": 238,
    "npl_site_name": "Saco Tannery Waste Pits",
    "npl_site_score": 43.19,
    "npd_latitude": 43.56055,
    "npl_longitude": -70.426389,
    "pfas": true
  },
  {
    "pfas_sample_id": "KITB-743-05",
    "miles": 5,
    "study": "AHHS",
    "pi": "HUD",
    "units": "ng/L",
    "medium": "water",
    "pfas_latitude": 43.11028763,
    "pfas_longitude": -70.73196183,
    "ogc_fid": 242,
    "npl_site_name": "Portsmouth Naval Shipyard",
    "npl_site_score": 50.0,
    "npd_latitude": 43.084167,
    "npl_longitude": -70.741666,
    "pfas": true
  },
  {
    "pfas_sample_id": "KITB-745-05",
    "miles": 5,
    "study": "AHHS",
    "pi": "HUD",
    "units": "ng/L",
    "medium": "water",
    "pfas_latitude": 37.36982579,
    "pfas_longitude": -122.0734023,
    "ogc_fid": 303,
    "npl_site_name": "Fairchild Semiconductor Corp. (Mountain View Plant)",
    "npl_site_score": 31.94,
    "npd_latitude": 37.4012,
    "npl_longitude": -122.0542,
    "pfas": true
  },
  {
    "pfas_sample_id": "KITB-745-05",
    "miles": 5,
    "study": "AHHS",
    "pi": "HUD",
    "units": "ng/L",
    "medium": "water",
    "pfas_latitude": 37.36982579,
    "pfas_longitude": -122.0734023,
    "ogc_fid": 305,
    "npl_site_name": "Intel Corp. (Mountain View Plant)",
    "npl_site_score": 29.76,
    "npd_latitude": 37.3962,
    "npl_longitude": -122.0566,
    "pfas": true
  },
  {
    "pfas_sample_id": "KITB-745-05",
    "miles": 5,
    "study": "AHHS",
    "pi": "HUD",
    "units": "ng/L",
    "medium": "water",
    "pfas_latitude": 37.36982579,
    "pfas_longitude": -122.0734023,
    "ogc_fid": 306,
    "npl_site_name": "Raytheon Corp.",
    "npl_site_score": 29.76,
    "npd_latitude": 37.3975,
    "npl_longitude": -122.0533,
    "pfas": true
  },
  {
    "pfas_sample_id": "KITB-745-05",
    "miles": 5,
    "study": "AHHS",
    "pi": "HUD",
    "units": "ng/L",
    "medium": "water",
    "pfas_latitude": 37.36982579,
    "pfas_longitude": -122.0734023,
    "ogc_fid": 307,
    "npl_site_name": "Moffett Naval Air Station",
    "npl_site_score": 29.49,
    "npd_latitude": 37.411389,
    "npl_longitude": -122.0522,
    "pfas": true
  },
  {
    "pfas_sample_id": "KITB-750-05",
    "miles": 5,
    "study": "AHHS",
    "pi": "HUD",
    "units": "ng/L",
    "medium": "water",
    "pfas_latitude": 40.77082939,
    "pfas_longitude": -73.65210315,
    "ogc_fid": 1056,
    "npl_site_name": "Fulton Avenue",
    "npl_site_score": 33.08,
    "npd_latitude": 40.737337,
    "npl_longitude": -73.657844,
    "pfas": true
  },
  {
    "pfas_sample_id": "KITB-750-05",
    "miles": 5,
    "study": "AHHS",
    "pi": "HUD",
    "units": "ng/L",
    "medium": "water",
    "pfas_latitude": 40.77082939,
    "pfas_longitude": -73.65210315,
    "ogc_fid": 1114,
    "npl_site_name": "Stanton Cleaners Area Ground Water Contamination",
    "npl_site_score": 35.76,
    "npd_latitude": 40.782361,
    "npl_longitude": -73.734139,
    "pfas": true
  },
  {
    "pfas_sample_id": "KITB-750-05",
    "miles": 5,
    "study": "AHHS",
    "pi": "HUD",
    "units": "ng/L",
    "medium": "water",
    "pfas_latitude": 40.77082939,
    "pfas_longitude": -73.65210315,
    "ogc_fid": 1118,
    "npl_site_name": "Old Roosevelt Field Contaminated Ground Water Area",
    "npl_site_score": 50.0,
    "npd_latitude": 40.733611,
    "npl_longitude": -73.618472,
    "pfas": true
  },
  {
    "pfas_sample_id": "KITB-750-05",
    "miles": 5,
    "study": "AHHS",
    "pi": "HUD",
    "units": "ng/L",
    "medium": "water",
    "pfas_latitude": 40.77082939,
    "pfas_longitude": -73.65210315,
    "ogc_fid": 1132,
    "npl_site_name": "New Cassel/Hicksville Ground Water Contamination",
    "npl_site_score": 50.0,
    "npd_latitude": 40.752446,
    "npl_longitude": -73.559781,
    "pfas": true
  },
  {
    "pfas_sample_id": "KITB-750-05",
    "miles": 5,
    "study": "AHHS",
    "pi": "HUD",
    "units": "ng/L",
    "medium": "water",
    "pfas_latitude": 40.77082939,
    "pfas_longitude": -73.65210315,
    "ogc_fid": 1562,
    "npl_site_name": "Port Washington Landfill",
    "npl_site_score": 45.46,
    "npd_latitude": 40.81805,
    "npl_longitude": -73.666661,
    "pfas": true
  },
  {
    "pfas_sample_id": "KITB-750-05",
    "miles": 5,
    "study": "AHHS",
    "pi": "HUD",
    "units": "ng/L",
    "medium": "water",
    "pfas_latitude": 40.77082939,
    "pfas_longitude": -73.65210315,
    "ogc_fid": 1574,
    "npl_site_name": "Pasley Solvents & Chemicals, Inc.",
    "npl_site_score": 39.65,
    "npd_latitude": 40.729169,
    "npl_longitude": -73.612219,
    "pfas": true
  },
  {
    "pfas_sample_id": "KITB-750-05",
    "miles": 5,
    "study": "AHHS",
    "pi": "HUD",
    "units": "ng/L",
    "medium": "water",
    "pfas_latitude": 40.77082939,
    "pfas_longitude": -73.65210315,
    "ogc_fid": 1591,
    "npl_site_name": "Applied Environmental Services",
    "npl_site_score": 41.15,
    "npd_latitude": 40.823054,
    "npl_longitude": -73.646693,
    "pfas": true
  },
  {
    "pfas_sample_id": "KITB-750-05",
    "miles": 5,
    "study": "AHHS",
    "pi": "HUD",
    "units": "ng/L",
    "medium": "water",
    "pfas_latitude": 40.77082939,
    "pfas_longitude": -73.65210315,
    "ogc_fid": 1610,
    "npl_site_name": "Genzale Plating Co.",
    "npl_site_score": 33.79,
    "npd_latitude": 40.7153,
    "npl_longitude": -73.6777,
    "pfas": true
  },
  {
    "pfas_sample_id": "KITB-763-05",
    "miles": 5,
    "study": "AHHS",
    "pi": "HUD",
    "units": "ng/L",
    "medium": "water",
    "pfas_latitude": 43.53565292,
    "pfas_longitude": -70.45771213,
    "ogc_fid": 237,
    "npl_site_name": "Saco Municipal Landfill",
    "npl_site_score": 29.49,
    "npd_latitude": 43.5302,
    "npl_longitude": -70.4815,
    "pfas": true
  },
  {
    "pfas_sample_id": "KITB-763-05",
    "miles": 5,
    "study": "AHHS",
    "pi": "HUD",
    "units": "ng/L",
    "medium": "water",
    "pfas_latitude": 43.53565292,
    "pfas_longitude": -70.45771213,
    "ogc_fid": 238,
    "npl_site_name": "Saco Tannery Waste Pits",
    "npl_site_score": 43.19,
    "npd_latitude": 43.56055,
    "npl_longitude": -70.426389,
    "pfas": true
  },
  {
    "pfas_sample_id": "KITB-743-05",
    "miles": 5,
    "study": "AHHS",
    "pi": "HUD",
    "units": "ng/L",
    "medium": "water",
    "pfas_latitude": 43.11028763,
    "pfas_longitude": -70.73196183,
    "ogc_fid": 940,
    "npl_site_name": "Pease Air Force Base",
    "npl_site_score": 39.42,
    "npd_latitude": 43.080169,
    "npl_longitude": -70.82125,
    "pfas": true
  },
  {
    "pfas_sample_id": "KITB-767-05",
    "miles": 5,
    "study": "AHHS",
    "pi": "HUD",
    "units": "ng/L",
    "medium": "water",
    "pfas_latitude": 39.23538925,
    "pfas_longitude": -84.46220077,
    "ogc_fid": 1154,
    "npl_site_name": "Pristine, Inc.",
    "npl_site_score": 35.25,
    "npd_latitude": 39.236111,
    "npl_longitude": -84.437231,
    "pfas": true
  },
  {
    "pfas_sample_id": "KITB-768-05",
    "miles": 5,
    "study": "AHHS",
    "pi": "HUD",
    "units": "ng/L",
    "medium": "water",
    "pfas_latitude": 42.80757172,
    "pfas_longitude": -71.29946396,
    "ogc_fid": 931,
    "npl_site_name": "Tinkham Garage",
    "npl_site_score": 43.24,
    "npd_latitude": 42.860831,
    "npl_longitude": -71.351111,
    "pfas": true
  },
  {
    "pfas_sample_id": "KITB-772-05",
    "miles": 5,
    "study": "AHHS",
    "pi": "HUD",
    "units": "ng/L",
    "medium": "water",
    "pfas_latitude": 34.23183613,
    "pfas_longitude": -118.3660127,
    "ogc_fid": 481,
    "npl_site_name": "San Fernando Valley (Area 1)",
    "npl_site_score": 42.24,
    "npd_latitude": 34.19,
    "npl_longitude": -118.3514,
    "pfas": true
  },
  {
    "pfas_sample_id": "KITB-773-05",
    "miles": 5,
    "study": "AHHS",
    "pi": "HUD",
    "units": "ng/L",
    "medium": "water",
    "pfas_latitude": 39.08027011,
    "pfas_longitude": -76.79055724,
    "ogc_fid": 225,
    "npl_site_name": "Fort George G. Meade",
    "npl_site_score": 51.44,
    "npd_latitude": 39.083333,
    "npl_longitude": -76.715278,
    "pfas": true
  },
  {
    "pfas_sample_id": "KITB-774-05",
    "miles": 5,
    "study": "AHHS",
    "pi": "HUD",
    "units": "ng/L",
    "medium": "water",
    "pfas_latitude": 34.06638128,
    "pfas_longitude": -118.3098315,
    "ogc_fid": 484,
    "npl_site_name": "San Fernando Valley (Area 4)",
    "npl_site_score": 35.57,
    "npd_latitude": 34.112081,
    "npl_longitude": -118.2539,
    "pfas": true
  }
]